City,Lat,Lng,Max Temp,Humidity,Cloudiness,Wind Speed,Country,Date
Colac,-38.3333,143.5833,55.62,88,91,12.44,AU,1634960609
Kozhva,65.1073,57.0459,34.9,97,100,11.16,RU,1634960610
Ushuaia,-54.8,-68.3,38.86,93,75,32.21,AR,1634960608
Rikitea,-23.1203,-134.9692,74.16,84,7,19.75,PF,1634960550
Butaritari,3.0707,172.7902,82.51,75,88,17.9,KI,1634960611
Srednekolymsk,67.45,153.6833,-2.2,93,59,0.89,RU,1634960611
Kapaa,22.0752,-159.319,80.58,84,90,1.99,US,1634960593
Bluff,-46.6,168.3333,56.14,70,97,12.5,NZ,1634960611
Egvekinot,66.3167,-179.1667,11.1,83,100,8.99,RU,1634960612
Bethel,41.3712,-73.414,59.36,71,75,3.44,US,1634960612
Faanui,-16.4833,-151.75,78.13,79,75,12.95,PF,1634960613
East London,-33.0153,27.9116,58.14,82,0,3.44,ZA,1634960517
Urusha,54.05,122.9,45.54,52,13,3.56,RU,1634960614
Broome,42.2506,-75.833,42.6,79,1,1.99,US,1634960615
Hilo,19.7297,-155.09,74.93,92,90,0.0,US,1634960615
Albany,42.6001,-73.9662,46.15,83,36,1.99,US,1634960615
Half Moon Bay,37.4636,-122.4286,59.18,87,90,0.0,US,1634960335
Yankton,42.8711,-97.3973,42.12,93,1,5.75,US,1634960616
Ampanihy,-24.7,44.75,67.53,73,100,8.16,MG,1634960617
Port-Gentil,-0.7193,8.7815,78.26,82,100,12.73,GA,1634960617
Cherskiy,68.75,161.3,-3.62,100,99,3.36,RU,1634960617
West Memphis,35.1465,-90.1845,54.64,81,1,3.0,US,1634960618
Rome,43.2128,-75.4557,39.06,95,1,0.0,US,1634960352
Guerrero Negro,27.9769,-114.0611,66.52,81,0,14.16,MX,1634960523
Vågåmo,61.8751,9.0967,30.52,87,44,7.56,NO,1634960619
Sur,22.5667,59.5289,83.21,64,0,6.8,OM,1634960620
Saint George,37.1041,-113.5841,69.35,29,1,3.0,US,1634960621
Lavrentiya,65.5833,-171.0,24.62,84,100,11.12,RU,1634960622
Hermanus,-34.4187,19.2345,57.79,82,100,21.52,ZA,1634960559
San Cristobal,7.7669,-72.225,66.38,94,20,1.43,VE,1634960623
Saldanha,-33.0117,17.9442,55.45,78,84,20.04,ZA,1634960623
Cayenne,4.9333,-52.3333,77.09,89,75,1.01,GF,1634960623
Sandviken,60.6167,16.7667,35.69,84,80,9.06,SE,1634960624
Kloulklubed,7.0419,134.2556,86.5,70,33,9.01,PW,1634960625
Mataura,-46.1927,168.8643,70.36,43,96,3.04,NZ,1634960625
George Town,5.4112,100.3354,87.73,74,20,3.0,MY,1634960422
Kahului,20.8947,-156.47,80.62,74,20,21.85,US,1634960626
Avarua,-21.2078,-159.775,73.45,64,99,6.91,CK,1634960626
Atuona,-9.8,-139.0333,77.97,79,25,17.67,PF,1634960560
Hong Kong,22.2855,114.1577,73.26,75,65,1.99,HK,1634960422
Coquimbo,-29.9533,-71.3436,55.13,82,0,2.3,CL,1634960626
Vaini,-21.2,-175.2,77.16,78,40,11.5,TO,1634960627
Punta Arenas,-53.15,-70.9167,39.11,86,47,30.36,CL,1634960627
Kavieng,-2.5744,150.7967,85.28,68,19,12.66,PG,1634960628
Thompson,55.7435,-97.8558,30.36,86,75,5.75,CA,1634960618
Port-Cartier,50.0334,-66.8654,48.42,93,100,5.17,CA,1634960629
Chui,-33.6971,-53.4616,57.69,71,100,6.11,UY,1634960630
Dikson,73.5069,80.5464,13.12,89,95,19.48,RU,1634960576
Chokurdakh,70.6333,147.9167,-11.83,99,97,2.89,RU,1634960630
Ngaoundéré,7.3167,13.5833,64.89,92,100,3.22,CM,1634960631
Alice Springs,-23.7,133.8833,83.75,21,0,20.71,AU,1634960491
Oktyabr'skiy,54.4815,53.471,45.91,93,29,12.95,RU,1634960632
Marsh Harbour,26.5412,-77.0636,80.38,74,100,13.13,BS,1634960632
Mar del Plata,-38.0023,-57.5575,55.99,91,90,1.01,AR,1634960493
Saint Paul Harbor,57.79,-152.4072,40.69,82,100,14.29,US,1634960633
Lokosovo,61.1333,74.8167,36.52,97,100,14.85,RU,1634960634
Busselton,-33.65,115.3333,65.98,53,0,6.76,AU,1634960634
Mayumba,-3.432,10.6554,76.89,86,100,5.21,GA,1634960635
Airai,-8.9266,125.4092,80.83,41,53,2.17,TL,1634960635
Barrow,71.2906,-156.7887,30.22,86,90,9.22,US,1634960636
Mahébourg,-20.4081,57.7,75.25,94,75,16.11,MU,1634960636
Kinsale,51.7075,-8.5306,53.24,82,75,17.27,IE,1634960637
Formosa,-26.1775,-58.1781,75.18,69,75,4.61,AR,1634960638
Torbay,47.6666,-52.7314,52.75,87,90,8.05,CA,1634960639
Hithadhoo,-0.6,73.0833,82.49,72,100,11.86,MV,1634960614
Songjianghe,42.1859,127.479,48.6,36,0,4.03,CN,1634960640
Isangel,-19.55,169.2667,84.31,74,20,8.05,VU,1634960640
Yellowknife,62.456,-114.3525,42.42,71,20,19.57,CA,1634960641
Saint Anthony,45.0205,-93.218,42.04,71,90,5.75,US,1634960641
Verkhoyansk,67.5447,133.385,11.26,92,90,1.39,RU,1634960642
Jacareacanga,-6.2222,-57.7528,73.11,98,92,2.42,BR,1634960643
Puerto Madryn,-42.7692,-65.0385,55.69,42,22,22.93,AR,1634960453
Bredasdorp,-34.5322,20.0403,57.27,82,100,11.5,ZA,1634960643
Ponta do Sol,32.6667,-17.1,68.63,64,28,8.5,PT,1634960575
Ribeira Grande,38.5167,-28.7,68.41,77,44,15.7,PT,1634960644
Anáhuac,27.2333,-100.15,78.78,65,100,10.94,MX,1634960644
Castro,-24.7911,-50.0119,54.18,78,0,3.85,BR,1634960582
Eureka,40.8021,-124.1637,56.62,92,100,7.61,US,1634960645
Cape Town,-33.9258,18.4232,57.88,84,75,5.01,ZA,1634960645
Upernavik,72.7868,-56.1549,21.51,79,100,4.16,GL,1634960645
Ossora,59.2353,163.0719,25.41,70,37,2.06,RU,1634960645
Province of Mantua,45.1667,10.7833,56.7,96,1,2.57,IT,1634960646
Bonthe,7.5264,-12.505,76.41,88,99,2.68,SL,1634960646
Ryabovo,59.4,31.1333,42.46,81,100,11.01,RU,1634960646
Maragogi,-9.0122,-35.2225,76.51,86,9,5.86,BR,1634960647
Port Alfred,-33.5906,26.891,63.75,68,35,8.21,ZA,1634960647
Snåase,64.2457,12.3778,30.16,97,97,2.19,NO,1634960647
Garoowe,8.4054,48.4845,74.41,73,14,9.01,SO,1634960648
New Norfolk,-42.7826,147.0587,53.92,77,100,2.1,AU,1634960587
Lebu,-37.6167,-73.65,50.32,67,69,15.73,CL,1634960648
Danielskuil,-28.1887,23.5395,53.91,31,0,8.05,ZA,1634960648
Forsytheganj,52.6333,29.7333,45.88,62,52,15.23,BY,1634960649
Tuatapere,-46.1333,167.6833,64.44,56,96,5.68,NZ,1634960649
Tarakan,3.3,117.6333,81.9,78,75,4.61,ID,1634960649
Lagoa,39.05,-27.9833,67.46,73,58,15.37,PT,1634960650
Nemuro,43.3236,145.575,50.43,82,99,11.79,JP,1634960650
Touros,-5.1989,-35.4608,81.5,81,26,8.68,BR,1634960645
Tura,25.5198,90.2201,77.7,56,0,0.72,IN,1634960651
Korbach,51.2756,8.873,41.38,91,33,5.17,DE,1634960651
Acajutla,13.5928,-89.8275,79.03,85,94,6.55,SV,1634960652
Haverfordwest,51.8017,-4.9691,54.34,92,99,1.01,GB,1634960652
Constitución,-35.3333,-72.4167,50.13,73,2,10.85,CL,1634960456
Son La,21.3167,103.9,60.82,85,100,2.33,VN,1634960653
Biak,-0.9131,122.8766,85.15,62,89,4.94,ID,1634960586
Riyadh,24.6877,46.7219,68.14,31,4,5.57,SA,1634960423
Ode,7.7899,5.7117,69.76,98,100,3.96,NG,1634960653
Hobart,-42.8794,147.3294,54.27,90,90,8.05,AU,1634960637
Nanortalik,60.1432,-45.2371,38.41,97,100,9.04,GL,1634960654
Yulara,-25.2406,130.9889,82.24,23,0,17.27,AU,1634960654
Jennings,38.7192,-90.2604,51.71,86,90,3.44,US,1634960654
Sakaiminato,35.55,133.2333,64.38,45,75,12.66,JP,1634960655
Winnipeg,49.8844,-97.147,40.01,76,90,3.44,CA,1634960358
Carnarvon,-24.8667,113.6333,77.07,57,0,21.85,AU,1634960595
Tasiilaq,65.6145,-37.6368,32.16,93,100,10.04,GL,1634960656
Bouna,9.2667,-3.0,72.32,92,16,4.74,CI,1634960656
Bilma,18.6853,12.9164,77.34,19,3,7.83,NE,1634960626
Grindavik,63.8424,-22.4338,45.07,93,90,6.91,IS,1634960656
Poum,-20.2333,164.0167,75.51,77,4,18.05,NC,1634960657
Tarazona,41.9,-1.7333,46.99,76,0,6.6,ES,1634960657
Vostok,46.4856,135.8833,42.01,60,15,8.48,RU,1634960658
Abnūb,27.2696,31.1511,65.75,73,1,10.92,EG,1634960658
Koło,52.2002,18.6387,43.88,84,47,19.06,PL,1634960658
Bambous Virieux,-20.3428,57.7575,76.21,94,75,16.11,MU,1634960659
Sosnovo-Ozerskoye,52.5249,111.5418,40.48,43,1,7.92,RU,1634960659
Careiro da Várzea,-3.2003,-59.8119,77.63,76,83,2.42,BR,1634960660
Aykhal,66.0,111.5,27.99,94,100,7.72,RU,1634960660
Canmore,51.0834,-115.3521,49.75,91,100,8.05,CA,1634960416
Port Hardy,50.6996,-127.4199,50.0,93,90,5.75,CA,1634960571
College,64.8569,-147.8028,34.59,81,75,0.0,US,1634960661
Torbat-e Jām,35.244,60.6225,50.81,12,0,7.74,IR,1634960662
Salalah,17.0151,54.0924,73.49,78,0,4.61,OM,1634960421
Maceió,-9.6658,-35.7353,78.24,94,0,3.44,BR,1634960663
Bokoro,12.3807,17.0568,81.25,55,69,5.17,TD,1634960663
Frutal,-20.0247,-48.9406,71.37,44,0,4.45,BR,1634960540
Jamestown,42.097,-79.2353,45.72,91,90,3.0,US,1634960369
Moroni,-11.7022,43.2551,78.06,69,84,0.96,KM,1634960664
Geraldton,-28.7667,114.6,77.41,38,0,13.8,AU,1634960665
Port Lincoln,-34.7333,135.8667,60.46,53,7,17.34,AU,1634960665
Redmond,47.674,-122.1215,53.98,88,100,3.0,US,1634960607
São João da Barra,-21.6403,-41.0511,68.79,82,9,6.44,BR,1634960666
San Jerónimo,-11.9472,-75.2829,52.92,71,28,3.29,PE,1634960666
Nikolskoye,59.7035,30.7861,42.69,86,99,10.56,RU,1634960577
Necochea,-38.5473,-58.7368,52.03,93,100,5.91,AR,1634960667
Alihe,50.5667,123.7167,49.23,46,9,8.37,CN,1634960668
Ol'ga,43.7444,135.2892,55.17,40,3,11.25,RU,1634960668
Fortuna,40.5982,-124.1573,56.35,71,90,5.99,US,1634960668
Paducah,37.0834,-88.6001,50.81,94,1,0.0,US,1634960429
Luan,46.3592,6.9759,40.91,84,5,2.82,CH,1634960669
Iqaluit,63.7506,-68.5145,26.33,86,90,8.01,CA,1634960669
Tuktoyaktuk,69.4541,-133.0374,33.8,100,90,11.5,CA,1634960670
San Angelo,31.4638,-100.437,71.55,77,1,1.99,US,1634960671
Nabīnagar,23.8917,90.9733,82.47,58,10,6.6,BD,1634960672
Barbacoas,1.6715,-78.1398,73.8,98,100,1.28,CO,1634960672
Pochutla,15.7432,-96.4661,74.82,91,100,3.51,MX,1634960672
Qaanaaq,77.484,-69.3632,-0.26,63,0,8.39,GL,1634960673
Kolno,53.4115,21.9291,41.11,74,80,17.78,PL,1634960674
Kununurra,-15.7667,128.7333,100.38,34,6,8.05,AU,1634960674
Winnemucca,40.973,-117.7357,50.05,53,1,8.05,US,1634960635
Staryy Nadym,65.6118,72.6842,28.45,91,81,13.09,RU,1634960675
Lensk,60.7253,114.9278,40.96,79,67,10.89,RU,1634960675
Salta,-24.7859,-65.4117,67.57,52,0,4.0,AR,1634960676
Mossamedes,-15.1961,12.1522,64.27,67,37,8.12,AO,1634960677
Homer,59.6425,-151.5483,41.81,87,90,5.75,US,1634960677
Dicabisagan,17.0818,122.4157,83.8,74,63,7.76,PH,1634960678
Susanville,40.4163,-120.653,46.81,74,100,3.0,US,1634960678
Severo-Kuril'sk,50.6789,156.125,40.66,81,62,13.4,RU,1634960679
Kiama,-34.6833,150.8667,89.01,67,67,9.75,AU,1634960680
Puerto Ayora,-0.7393,-90.3518,69.96,86,37,7.0,EC,1634960681
Mehamn,71.0357,27.8492,32.7,64,100,13.65,NO,1634960681
Pita,10.8333,-12.5833,71.8,98,100,1.52,GN,1634960681
Grants,35.1473,-107.8514,44.83,49,1,5.75,US,1634960682
Port Elizabeth,-33.918,25.5701,63.1,63,0,6.91,ZA,1634960566
Sittwe,20.15,92.9,81.28,71,100,1.41,MM,1634960683
Alofi,-19.0595,-169.9187,76.89,57,97,17.27,NU,1634960683
Neuquén,-38.9516,-68.0591,55.29,50,0,2.3,AR,1634960683
Keflavik,64.0049,-22.5624,45.52,93,90,6.91,IS,1634960684
Pisco,-13.7,-76.2167,61.02,82,0,14.97,PE,1634960685
Otradnoye,59.7775,30.8181,42.04,88,99,10.31,RU,1634960685
Madang,-5.2246,145.7966,85.69,64,100,7.92,PG,1634960685
Doka,13.5167,35.7667,73.67,57,29,4.61,SD,1634960686
Mount Gambier,-37.8333,140.7667,57.11,72,75,13.8,AU,1634960567
Portland,45.5234,-122.6762,54.41,92,40,1.01,US,1634959958
Podolínec,49.2587,20.536,43.92,83,83,4.83,SK,1634960686
Pacific Grove,36.6177,-121.9166,59.11,89,90,3.0,US,1634960687
Jinchang,38.4953,102.1739,52.9,45,65,5.95,CN,1634960688
Hwange,-18.3693,26.5019,76.1,45,17,0.18,ZW,1634960689
Belaya Gora,68.5333,146.4167,-4.36,90,58,0.69,RU,1634960689
Perth,-31.9333,115.8333,77.14,38,0,9.22,AU,1634960690
Caracolí,6.4119,-74.7606,68.05,99,79,3.58,CO,1634960690
Quatre Cocos,-20.2078,57.7625,76.08,76,48,14.38,MU,1634960690
Henties Bay,-22.116,14.2845,55.85,88,0,7.52,NA,1634960691
Sitka,57.0531,-135.33,46.29,71,90,12.66,US,1634960691
Bathsheba,13.2167,-59.5167,83.01,69,20,24.16,BB,1634960692
Te Anau,-45.4167,167.7167,63.93,48,100,2.46,NZ,1634960692
Algete,40.5971,-3.4974,48.79,74,0,5.01,ES,1634960692
Antofagasta,-23.65,-70.4,58.28,79,40,4.79,CL,1634960693
Soe,-9.8607,124.284,90.05,36,18,9.46,ID,1634960693
Coyhaique,-45.5752,-72.0662,46.35,61,20,6.91,CL,1634960582
Santa Rosa,14.3122,121.1114,90.1,82,80,13.11,PH,1634960693
Saint-Philippe,-21.3585,55.7679,81.48,80,36,8.23,RE,1634960694
Provideniya,64.3833,-173.3,26.26,75,100,8.43,RU,1634960694
Tiksi,71.6872,128.8694,4.71,94,100,2.33,RU,1634960694
Najrān,17.4924,44.1277,61.45,30,94,1.14,SA,1634960694
Arlit,18.7369,7.3853,82.85,16,16,10.96,NE,1634960695
Vangaindrano,-23.35,47.6,70.03,81,100,2.57,MG,1634960695
Bairiki Village,1.3292,172.9752,86.0,66,20,12.66,KI,1634960696
Port Hedland,-20.3167,118.5667,100.45,15,1,16.11,AU,1634960696
Yerbogachën,61.2767,108.0108,41.13,70,80,11.1,RU,1634960697
Lompoc,34.6391,-120.4579,62.78,92,90,11.5,US,1634960697
Eugene,44.0521,-123.0867,52.52,93,100,1.99,US,1634960504
Hasaki,35.7333,140.8333,63.0,49,8,15.1,JP,1634960698
Pevek,69.7008,170.3133,12.42,91,100,6.51,RU,1634960698
Nelson Bay,-32.7167,152.15,90.75,73,4,13.87,AU,1634960593
Narsaq,60.9167,-46.05,37.62,99,100,1.36,GL,1634960643
Jiuquan,39.7432,98.5174,52.81,26,0,7.05,CN,1634960699
Kaitangata,-46.2817,169.8464,59.65,62,96,7.54,NZ,1634960699
Bānposh,22.25,84.8,77.77,58,0,1.79,IN,1634960699
Jackson,42.4165,-122.8345,53.47,85,75,3.44,US,1634960616
Polonnaruwa,7.9333,81.0,86.0,65,6,4.99,LK,1634960700
Perote,19.5667,-97.2333,53.01,97,100,2.46,MX,1634960700
Chapais,49.7834,-74.8492,28.18,77,100,2.98,CA,1634960701
Korla,41.7597,86.1469,59.83,23,100,13.22,CN,1634960702
Wukari,7.85,9.7833,72.52,97,100,4.97,NG,1634960703
Iquique,-20.2208,-70.1431,60.84,76,45,1.36,CL,1634960461
Sechura,-5.5569,-80.8222,67.08,79,100,11.5,PE,1634960704
Kendari,-3.945,122.4989,93.22,46,4,3.18,ID,1634960704
Vardø,70.3705,31.1107,34.81,60,100,19.39,NO,1634960705
Linxia Chengguanzhen,35.6003,103.2064,52.43,61,62,3.65,CN,1634960706
Shimoda,34.6667,138.95,66.56,68,78,5.41,JP,1634960706
Ilo,-17.6394,-71.3375,60.78,80,47,7.02,PE,1634960706
Sabzawār,36.2126,57.6819,40.28,48,0,11.5,IR,1634960707
Prymors'k,46.7348,36.3443,53.62,93,100,8.1,UA,1634960708
Souillac,-20.5167,57.5167,76.35,94,75,16.11,MU,1634960708
Codrington,-38.2667,141.9667,56.75,71,63,14.07,AU,1634960603
Caucayá,-0.1934,-74.7819,73.26,95,94,1.88,CO,1634960708
Kumul,42.8,93.45,59.76,22,11,4.65,CN,1634960638
Schattdorf,46.8655,8.6547,48.33,90,57,1.48,CH,1634960709
Vao,-22.6667,167.4833,73.6,77,0,5.82,NC,1634960682
Bathurst,-33.4166,149.5806,82.96,39,72,5.99,AU,1634960709
Moose Factory,51.2585,-80.6094,35.6,87,90,12.66,CA,1634960710
Kirensk,57.7853,108.1119,41.45,59,100,6.69,RU,1634960710
Lālpur,22.2,69.9667,78.08,58,40,11.14,IN,1634960711
Shāhganj,26.05,82.6833,76.91,48,0,3.69,IN,1634960711
Christchurch,-43.5333,172.6333,59.92,66,99,8.01,NZ,1634960689
Palmer,42.1584,-72.3287,54.45,60,75,1.99,US,1634960712
Emerald,-23.5333,148.1667,99.34,25,11,17.27,AU,1634960712
Chingirlau,51.095,54.0814,46.63,60,23,12.59,KZ,1634960712
Kamenka,51.3223,42.7678,49.44,68,100,8.16,RU,1634960713
Sogod,10.3847,124.9814,82.47,81,95,3.42,PH,1634960713
Norman Wells,65.282,-126.8329,41.04,70,20,13.8,CA,1634960581
Bengkulu,-3.8004,102.2655,83.57,69,97,3.91,ID,1634960680
Lorengau,-2.0226,147.2712,84.15,71,77,8.43,PG,1634960713
Arraial do Cabo,-22.9661,-42.0278,68.32,82,1,13.42,BR,1634960714
Dunedin,-45.8742,170.5036,55.8,73,95,11.99,NZ,1634960715
Grootfontein,-19.5667,18.1167,63.55,25,4,3.0,NA,1634960715
Manzhouli,49.6,117.4333,45.79,39,0,4.81,CN,1634960715
Rocha,-34.4833,-54.3333,57.18,87,100,2.73,UY,1634960716
Chekmagush,55.1319,54.6556,46.45,90,49,15.03,RU,1634960717
Banff,51.1762,-115.5698,43.18,81,100,8.05,CA,1634960717
Elko,41.0002,-115.5012,51.82,43,97,5.01,US,1634960713
Mazatlán,23.2167,-106.4167,83.01,90,0,1.99,MX,1634960658
Ejido Hermosillo,32.5121,-114.9238,79.23,20,0,7.29,MX,1634960718
Byron Bay,-28.65,153.6167,89.71,62,0,15.17,AU,1634960719
Tigil',57.8,158.6667,31.26,95,100,4.81,RU,1634960720
Cidreira,-30.1811,-50.2056,64.63,90,0,11.36,BR,1634960573
Sola,-13.8833,167.55,86.67,74,75,8.05,VU,1634960721
Pomabamba,-8.8333,-77.4667,51.89,86,74,2.37,PE,1634960721
Richards Bay,-28.783,32.0377,68.09,83,2,3.22,ZA,1634960722
Narón,43.5167,-8.1528,50.02,88,5,4.61,ES,1634960722
Esperance,-33.8667,121.9,64.24,50,11,12.5,AU,1634960723
Lake Havasu City,34.4839,-114.3224,78.8,13,1,1.01,US,1634960409
Wenling,28.3669,121.36,65.91,76,100,7.7,CN,1634960724
Brownsville,25.9018,-97.4975,80.91,86,20,0.0,US,1634960648
Batagay,67.6333,134.6333,12.54,88,95,1.3,RU,1634960724
Baruun-Urt,46.6806,113.2792,44.42,32,24,13.98,MN,1634960725
Vredendal,-31.6683,18.5012,56.52,84,100,15.05,ZA,1634960725
Rio Grande,-32.035,-52.0986,56.95,87,13,8.32,BR,1634960684
Sungai Penuh,-2.0833,101.3833,79.63,61,50,2.46,ID,1634960726
Tonaya,19.7833,-103.9667,70.72,86,79,2.75,MX,1634960726
Kieta,-6.2167,155.6333,85.12,69,26,8.84,PG,1634960727
Vila,42.0304,-8.1588,43.32,93,3,3.74,PT,1634960646
Bandarbeyla,9.4942,50.8122,78.78,73,63,5.08,SO,1634960727
Lewistown,40.5992,-77.5714,55.51,100,75,0.0,US,1634960728
Antalaha,-14.9003,50.2788,77.2,80,15,2.24,MG,1634960729
Saryozek,44.3583,77.9753,37.65,54,1,3.44,KZ,1634960730
Evensk,61.95,159.2333,12.56,71,90,5.57,RU,1634960730
Baiyin,36.5583,104.2081,47.28,58,59,1.74,CN,1634960731
Dolisie,-4.1997,12.6739,71.64,96,100,0.67,CG,1634960732
Kayerkan,69.3497,87.7602,28.0,95,100,8.97,RU,1634960732
Masuda,34.6667,131.85,65.93,45,40,6.91,JP,1634960733
Daru,-9.0763,143.2092,84.47,62,26,10.69,PG,1634960733
Puerto Colombia,10.9878,-74.9547,80.69,77,4,10.22,CO,1634960733
Ahipara,-35.1667,173.1667,60.82,95,100,19.37,NZ,1634960734
Arjawinangun,-6.6453,108.4103,90.64,52,92,8.16,ID,1634960734
Whitehorse,60.7161,-135.0538,41.77,80,75,18.99,CA,1634960735
Klaksvík,62.2266,-6.589,47.32,93,100,29.64,FO,1634960736
Mlonggo,-6.5333,110.7,91.29,62,99,2.95,ID,1634960736
Darhan,49.4867,105.9228,44.28,35,0,4.43,MN,1634960736
Plettenberg Bay,-34.0527,23.3716,61.84,57,100,9.62,ZA,1634960737
Camaná,-16.6228,-72.7111,61.68,80,77,8.25,PE,1634960737
Ilulissat,69.2167,-51.1,17.62,53,99,16.11,GL,1634960738
Whyalla,-33.0333,137.5833,64.29,52,25,21.85,AU,1634960738
Zhigansk,66.7697,123.3711,19.67,95,91,5.46,RU,1634960739
Bereda,43.2686,-7.5406,45.57,100,10,0.94,ES,1634960739
Bandiagara,14.3501,-3.6104,77.43,56,58,5.19,ML,1634960740
Urucará,-2.5364,-57.76,79.57,75,100,1.95,BR,1634960740
Marzuq,14.4,46.4667,72.01,49,7,3.36,YE,1634960741
Waingapu,-9.6567,120.2641,90.18,50,49,9.31,ID,1634960742
Peniche,39.3558,-9.3811,62.62,91,20,8.84,PT,1634960743
Kurumkan,54.3,110.3,41.76,53,7,1.43,RU,1634960744
Cabo San Lucas,22.8909,-109.9124,78.62,81,1,5.99,MX,1634960744
Okha,53.5739,142.9478,41.4,79,97,13.78,RU,1634960744
Comodoro Rivadavia,-45.8667,-67.5,55.26,35,100,40.29,AR,1634960594
Sindor,62.8629,51.8905,37.11,88,97,12.08,RU,1634960745
Khatanga,71.9667,102.5,6.3,91,99,13.06,RU,1634960632
Røros,62.5747,11.3842,31.84,86,90,12.66,NO,1634960746
Ilhabela,-23.7781,-45.3581,66.27,88,36,8.1,BR,1634960747
Karia,11.7306,11.1629,77.85,62,17,4.38,NG,1634960748
Padang,-0.9492,100.3543,84.25,70,72,4.25,ID,1634960749
Dwārka,22.2394,68.9678,80.1,69,48,14.9,IN,1634960749
Sertânia,-8.0736,-37.2644,73.31,80,73,7.05,BR,1634960593
Kruisfontein,-34.0033,24.7314,60.89,67,100,7.36,ZA,1634960750
Tahlequah,35.9154,-94.97,63.43,66,1,6.38,US,1634960751
Bubaque,11.2833,-15.8333,82.87,74,59,9.26,GW,1634960751
Deputatsky,69.3,139.9,0.64,96,96,0.31,RU,1634960752
Alexandria,31.2156,29.9553,66.16,72,40,4.61,EG,1634960663
Cururupu,-1.8283,-44.8683,74.86,97,91,2.1,BR,1634960753
Katangli,51.7102,143.2326,41.61,75,90,17.69,RU,1634960753
Palembang,-2.9167,104.7458,87.89,66,40,4.61,ID,1634960754
Arrondissement du Havre,49.5833,0.3333,53.37,76,90,10.36,FR,1634960754
Syamzha,60.0158,41.0614,39.47,77,100,13.58,RU,1634960755
Puerto Escondido,15.85,-97.0667,77.0,86,100,2.53,MX,1634960755
Muhafazat Lahij,13.1667,44.5833,76.01,78,43,4.61,YE,1634960756
Kindu,-2.95,25.95,67.82,98,98,1.43,CD,1634960757
Encruzilhada,-15.5314,-40.9094,68.36,93,95,5.23,BR,1634960758
Pringsewu,-5.3582,104.9744,87.24,59,99,2.55,ID,1634960758
Saskylakh,71.9167,114.0833,-11.07,100,94,2.66,RU,1634960758
Manakara,-22.1333,48.0167,71.62,79,100,0.51,MG,1634960759
Machachi,-0.5,-78.5667,50.76,94,98,1.1,EC,1634960759
Harper,4.375,-7.7169,76.93,87,79,7.58,LR,1634960759
Umm Kaddadah,13.6017,26.6876,80.62,22,28,17.81,SD,1634960646
Laguna,38.421,-121.4238,61.29,78,1,3.0,US,1634960754
São Filipe,14.8961,-24.4956,79.56,69,0,3.27,CV,1634960760
Mogadouro,41.3403,-6.7119,39.78,84,0,4.74,PT,1634960761
Port Augusta,-32.5,137.7667,68.7,36,46,19.35,AU,1634960761
Charters Towers,-20.1,146.2667,97.74,20,32,4.45,AU,1634960762
Taltal,-25.4,-70.4833,56.16,81,29,0.65,CL,1634960763
Kuytun,54.3419,101.5036,40.71,78,78,10.69,RU,1634960763
Kūstī,13.1629,32.6635,83.61,38,23,3.89,SD,1634960764
Naze,28.3667,129.4833,72.52,57,92,15.26,JP,1634960764
Kavaratti,10.5669,72.642,82.11,75,49,4.18,IN,1634960765
Along,28.1667,94.7667,79.47,53,19,1.21,IN,1634960765
Takoradze,4.8845,-1.7554,76.95,89,100,6.26,GH,1634960766
Udachny,66.4167,112.4,22.62,88,99,5.41,RU,1634960694
Fairbanks,64.8378,-147.7164,34.61,82,20,3.44,US,1634960510
Goderich,43.7501,-81.7165,37.72,87,100,4.61,CA,1634960688
San Andrés,12.5847,-81.7006,82.42,83,75,6.91,CO,1634960486
Bariloche,-41.1456,-71.3082,42.55,56,40,20.71,AR,1634960767
Auki,-8.7676,160.7034,87.21,59,21,3.38,SB,1634960768
Catabola,-12.15,17.2833,63.39,90,98,1.52,AO,1634960768
Hirara,24.8,125.2833,75.47,64,75,13.8,JP,1634960769
Ryōtsu-minato,38.0833,138.4333,57.16,48,91,19.04,JP,1634960770
Leningradskiy,69.3833,178.4167,3.2,86,53,9.22,RU,1634960564
Wuwei,37.9281,102.6414,55.72,40,75,5.79,CN,1634960771
Klæbu,63.2976,10.4826,43.05,83,94,13.47,NO,1634960772
Kīhei,20.785,-156.4656,80.62,74,20,21.85,US,1634960583
Lehututu,-23.9667,21.8667,59.77,21,0,10.04,BW,1634960772
San Quintín,30.4833,-115.95,63.05,86,4,12.82,MX,1634960773
Elvas,38.8815,-7.1628,52.68,56,0,6.02,PT,1634960774
Kez,57.8979,53.7152,42.98,77,95,15.3,RU,1634960774
Yining,29.0361,114.5636,66.61,50,14,1.77,CN,1634960775
La Cruz,23.9167,-106.9,77.07,86,0,4.85,MX,1634960775
Mae Hong Son,19.3003,97.9685,82.54,78,75,2.3,TH,1634960776
Falāvarjān,32.5553,51.5097,34.81,30,0,4.36,IR,1634960776
Pingzhuang,42.0372,119.2889,53.31,26,0,4.83,CN,1634960777
Warwick,41.7001,-71.4162,58.44,82,20,6.91,US,1634960490
Tazmalt,36.3868,4.3989,63.54,74,100,1.1,DZ,1634960777
Robertson,36.5167,-86.8667,55.38,98,90,0.0,US,1634960778
Talitsa,56.8804,60.0213,50.54,82,100,16.04,RU,1634960779
Imbituba,-28.24,-48.6703,68.83,92,4,11.99,BR,1634960780
Walvis Bay,-22.9575,14.5053,56.08,87,0,4.61,NA,1634960635
Abakaliki,6.3163,8.1169,72.32,98,100,3.49,NG,1634960781
Thinadhoo,0.5333,72.9333,83.46,69,71,13.38,MV,1634960781
Pingliang,35.5392,106.6861,50.47,66,100,8.03,CN,1634960740
Lethem,3.3803,-59.7968,76.75,80,85,8.41,GY,1634960624
Huilong,31.8111,121.655,67.98,49,87,8.34,CN,1634960517
Portobelo,9.55,-79.65,77.41,87,60,5.57,PA,1634960781
Cap Malheureux,-19.9842,57.6142,76.46,81,70,7.0,MU,1634960782
Sainte-Anne-des-Monts,49.124,-66.4924,49.87,100,100,19.57,CA,1634960783
Lukulu,-14.3707,23.242,68.13,69,18,2.39,ZM,1634960783
Upington,-28.4478,21.2561,55.78,76,0,6.91,ZA,1634960783
Nur,52.6683,22.3221,43.03,71,68,21.14,PL,1634960784
Gazojak,41.1875,61.4036,47.35,34,1,10.69,TM,1634960784
Sisimiut,66.9395,-53.6735,20.75,74,32,9.37,GL,1634960785
Shelburne,44.0787,-80.2041,39.76,90,100,0.89,CA,1634960785
Sai Buri,6.7013,101.6168,85.71,66,55,3.06,TH,1634960786
Itarema,-2.9248,-39.9167,78.46,85,85,8.37,BR,1634960786
San Patricio,28.017,-97.5169,80.46,79,97,8.95,US,1634960666
Zwedru,6.0667,-8.1281,70.79,99,70,1.88,LR,1634960787
Okakarara,-20.5833,17.4333,60.1,29,0,6.91,NA,1634960787
Petropavlovsk-Kamchatskiy,53.0452,158.6483,41.59,61,75,2.24,RU,1634960787
Erzin,36.9559,36.2,52.32,37,0,2.66,TR,1634960787
Beloha,-25.1667,45.05,67.23,79,100,10.6,MG,1634960788
Marigot,18.0667,-63.0833,83.05,74,20,13.8,MF,1634960788
Saint-Augustin,51.226,-58.6502,43.5,66,100,15.12,CA,1634960789
Corinth,37.9407,22.9573,65.44,81,10,4.9,GR,1634960789
Olafsvik,64.8945,-23.7142,45.84,92,100,7.58,IS,1634960789
Carutapera,-1.195,-46.02,76.44,94,97,5.7,BR,1634960705
Dumas,35.8656,-101.9732,69.22,63,1,11.5,US,1634960789
Krasnosel'kup,65.7,82.4667,29.14,91,98,17.6,RU,1634960790
Verāval,20.9,70.3667,81.19,60,25,9.55,IN,1634960791
Husavik,66.0449,-17.3389,31.91,92,100,10.04,IS,1634960791
Kibaya,-5.3,36.5667,59.95,82,52,3.22,TZ,1634960791
Troy,42.6056,-83.1499,44.98,82,1,0.0,US,1634960792
Hambantota,6.1241,81.1185,84.54,79,20,8.05,LK,1634960792
Guánica,17.9716,-66.908,81.01,70,5,5.01,PR,1634960724
Longyearbyen,78.2186,15.6401,19.24,86,40,1.14,SJ,1634960792
Bauchi,10.5,10.0,71.65,81,95,1.77,NG,1634960793
Simi,9.5667,-12.35,73.15,99,100,2.21,SL,1634960793
Porto-Novo,6.4965,2.6036,76.64,88,100,4.41,BJ,1634960667
La Asuncion,11.0333,-63.8628,78.53,94,90,11.5,VE,1634960793
Buchanan,5.8808,-10.0467,76.96,90,100,1.03,LR,1634960794
Beauceville,46.2179,-70.7787,42.46,87,100,1.14,CA,1634960795
Meulaboh,4.1363,96.1285,84.22,69,94,1.43,ID,1634960795
Fuente de Oro,3.4594,-73.6128,71.17,92,37,3.71,CO,1634960796
Bilibino,68.0546,166.4372,-2.45,99,98,1.45,RU,1634960796
Yurimaguas,-5.9,-76.0833,76.62,76,53,2.26,PE,1634960796
Carhuamayo,-10.9167,-76.0333,37.08,83,67,0.51,PE,1634960797
Yangi Marg`ilon,40.4272,71.7189,45.82,57,17,2.3,UZ,1634960797
La Tuque,47.4334,-72.7824,37.65,75,57,6.91,CA,1634960621
Palana,59.1167,159.9667,28.24,88,100,9.62,RU,1634960798
Talnakh,69.4865,88.3972,27.05,96,100,8.34,RU,1634960798
Ust'-Ishim,57.6935,71.1665,45.01,92,100,12.88,RU,1634960798
Kangaba,11.9333,-8.4167,74.57,89,99,3.74,ML,1634960799
Yamada,39.4667,141.95,53.74,50,86,11.97,JP,1634960799
Ambilobe,-13.2,49.05,80.51,67,18,2.71,MG,1634960800
Westport,41.1415,-73.3579,61.32,68,90,1.01,US,1634960787
Aklavik,68.2191,-135.0107,29.23,86,100,11.5,CA,1634960800
Kenai,60.5544,-151.2583,41.14,85,90,9.22,US,1634960798
Galich,58.3797,42.3475,39.47,80,75,11.88,RU,1634960802
Kostomuksha,64.571,30.5767,27.23,87,100,12.8,RU,1634960802
Knysna,-34.0363,23.0471,62.98,56,100,11.72,ZA,1634960803
Sibolga,1.7427,98.7792,84.43,67,85,4.81,ID,1634960803
Uspenka,48.3903,39.1619,49.93,79,62,6.31,UA,1634960804
Chumikan,54.7183,135.315,44.2,63,88,21.81,RU,1634960805
Canutama,-6.5339,-64.3831,75.79,86,23,1.92,BR,1634960806
Kutum,14.2,24.6667,73.26,27,41,13.6,SD,1634960806
Jiayuguan City,39.8167,98.3,51.08,27,0,8.9,CN,1634960807
Eidfjord,60.4675,7.0719,44.42,98,100,4.63,NO,1634960807
El Cobre,20.0489,-75.9469,78.24,89,75,3.44,CU,1634960807
Sena Madureira,-9.0656,-68.6569,78.48,75,98,2.86,BR,1634960808
Amuntai,-2.4177,115.2494,91.06,55,91,2.44,ID,1634960557
Mana,5.6592,-53.7767,78.31,88,98,10.54,GF,1634960808
Ocampo,21.65,-101.5,54.68,84,90,7.43,MX,1634960808
Katsuura,35.1333,140.3,64.51,43,2,18.14,JP,1634960809
Port Keats,-14.25,129.55,92.3,52,21,13.13,AU,1634960810
Lüderitz,-26.6481,15.1594,54.68,84,0,8.55,NA,1634960557
Vila Franca do Campo,37.7167,-25.4333,66.61,85,78,6.38,PT,1634960811
Prattville,32.464,-86.4597,61.77,84,1,3.44,US,1634960812
Rosario,-32.9468,-60.6393,61.95,82,90,1.99,AR,1634960543
Ostrovnoy,68.0531,39.5131,33.75,67,100,22.15,RU,1634960813
Nouna,12.7333,-3.8667,81.46,66,83,4.45,BF,1634960813
Altay,47.8667,88.1167,36.9,68,100,4.43,CN,1634960814
Mandalgovi,45.7625,106.2708,43.93,23,0,7.67,MN,1634960814
Chesma,53.8111,60.6533,43.92,84,63,16.93,RU,1634960815
Aginskoye,51.1,114.53,48.83,32,0,5.21,RU,1634960816
Rawson,-43.3002,-65.1023,57.45,40,50,22.03,AR,1634960817
Honāvar,14.2833,74.45,81.32,81,100,1.39,IN,1634960817
Charleston,32.7766,-79.9309,73.02,94,75,4.0,US,1634960632
Mujiayingzi,42.1167,118.7833,52.75,23,0,5.61,CN,1634960818
Vestmanna,62.1564,-7.1664,45.52,100,90,19.57,FO,1634960818
Nishifukuma,33.7667,130.4667,69.04,45,65,16.13,JP,1634960818
Anadyr,64.75,177.4833,10.9,79,40,11.18,RU,1634960819
Uíge,-7.6087,15.0613,66.72,99,96,1.41,AO,1634960820
Turki,51.987,43.2731,45.16,77,46,8.88,RU,1634960820
Misratah,32.3754,15.0925,74.16,58,51,12.17,LY,1634960821
Laela,-8.5667,32.05,65.46,60,42,2.46,TZ,1634960822
Roebourne,-20.7833,117.1333,95.76,20,7,14.18,AU,1634960822
Le Vauclin,14.5452,-60.8388,82.45,69,75,18.41,MQ,1634960823
Phan Thiet,10.9333,108.1,86.49,65,91,2.75,VN,1634960824
Dārāb,28.7519,54.5444,68.4,26,0,5.1,IR,1634960824
Los Llanos de Aridane,28.6585,-17.9182,64.15,84,75,1.99,ES,1634960825
Makakilo City,21.3469,-158.0858,82.72,58,1,10.36,US,1634960825
Liseleje,56.0053,11.9483,48.79,75,6,3.0,DK,1634960826
Lovozero,68.005,35.0117,21.49,88,98,8.25,RU,1634960826
Strelka,58.0728,93.0344,39.69,59,100,11.68,RU,1634960827
Tahe,52.3333,124.7333,48.74,46,2,7.65,CN,1634960827
Nimāparha,20.0667,86.0167,82.8,51,65,6.78,IN,1634960828
Yuncheng,35.0231,110.9928,58.68,54,100,9.93,CN,1634960828
Cerea,45.1921,11.2103,56.71,92,0,4.9,IT,1634960828
Lufkin,31.3382,-94.7291,71.78,82,1,3.44,US,1634960829
Naviraí,-23.065,-54.1906,66.07,70,0,7.23,BR,1634960829
Bose,45.4612,8.0137,51.22,75,0,4.63,IT,1634960829
São Félix do Xingu,-6.6447,-51.995,72.66,99,100,1.95,BR,1634960830
San Miguelito,9.0333,-79.5,80.55,91,90,1.14,PA,1634960830
Zhezkazgan,47.8043,67.7144,42.51,50,76,18.81,KZ,1634960830
Guntakal,15.1667,77.3833,80.28,71,96,9.22,IN,1634960831
Pemba,-12.974,40.5178,70.5,100,20,4.61,MZ,1634960831
Lata,40.1629,-8.3327,49.06,71,2,4.05,PT,1634960811
Charcas,23.1333,-101.1167,59.25,81,39,7.14,MX,1634960831
Kapustin Yar,48.5831,45.7372,48.7,82,29,7.94,RU,1634960832
Buncrana,55.1333,-7.45,47.01,81,99,12.8,IE,1634960832
Nara,34.6851,135.8049,65.97,42,24,14.09,JP,1634960832
Big Rapids,43.6981,-85.4837,45.72,94,90,0.0,US,1634960833
Gamba,-2.65,10.0,76.08,87,100,6.24,GA,1634960833
Sørland,67.667,12.6934,40.86,53,95,7.02,NO,1634960833
Pudem,58.3044,52.1675,42.6,78,100,15.19,RU,1634960834
Lucea,18.451,-78.1736,78.66,77,41,3.04,JM,1634960834
Basirpur,30.5832,73.829,82.53,46,17,16.13,PK,1634960834
Aksu,41.1231,80.2644,53.02,56,100,7.78,CN,1634960835
Gaza,31.5,34.4667,65.17,60,0,8.1,PS,1634960605
Praia,14.9215,-23.5087,79.34,53,0,10.36,CV,1634960835
Hamilton,39.1834,-84.5333,53.42,96,90,1.01,US,1634960764
Eyemouth,55.8713,-2.0901,47.34,85,100,8.68,GB,1634960835
Barberton,-25.7884,31.0532,66.25,51,0,3.27,ZA,1634960836
Tautira,-17.7333,-149.15,75.22,89,77,34.23,PF,1634960625
Atar,20.5169,-13.0499,75.65,22,100,6.89,MR,1634960768
Tessalit,20.1986,1.0114,77.9,23,17,6.46,ML,1634960836
Atambua,-9.1061,124.8925,87.37,57,27,6.91,ID,1634960625
Aranos,-24.1333,19.1167,57.74,36,0,7.96,NA,1634960837
Pauini,-7.7136,-66.9764,75.04,88,46,2.28,BR,1634960837
Hajdúböszörmény,47.6667,21.5167,42.53,68,6,9.35,HU,1634960838
Summerside,46.3959,-63.7876,61.23,94,94,9.22,CA,1634960839
Santa Isabel Rio Negro,-0.4139,-65.0192,75.94,84,87,1.41,BR,1634960840
Balkanabat,39.5108,54.3671,58.51,25,0,4.7,TM,1634960840
Kalmunai,7.4167,81.8167,84.99,67,17,2.53,LK,1634960840
Dakar,14.6937,-17.4441,80.73,78,5,11.5,SN,1634960742
Dingle,10.9995,122.6711,83.07,80,65,11.25,PH,1634960841
Formosa do Rio Preto,-11.0483,-45.1931,71.87,84,100,2.82,BR,1634960842
Truth or Consequences,33.1284,-107.2528,71.83,25,1,6.91,US,1634960843
Ko Samui,9.5357,99.9357,87.71,70,20,1.14,TH,1634960843
Emirdağ,39.0197,31.15,50.05,52,6,2.68,TR,1634960844
Le Port,-20.9373,55.2919,81.9,78,4,6.91,RE,1634960844
Korsakov,46.6328,142.7813,49.84,54,2,7.4,RU,1634960845
Barra de Tecoanapa,16.5167,-98.75,75.38,89,100,4.43,MX,1634960845
Bartow,27.8964,-81.8431,75.97,77,40,0.0,US,1634960846
Piterka,50.6803,47.4454,49.57,83,100,8.19,RU,1634960846
Kidodi,-7.6036,37.0044,72.73,78,48,2.55,TZ,1634960847
Hīrākud,21.5167,83.8667,78.26,54,1,1.39,IN,1634960848
Eenhana,-17.4667,16.3333,62.35,30,5,6.04,NA,1634960849
Gorontalo,0.5412,123.0595,81.09,79,100,1.41,ID,1634960849
Sarauli,28.5,79.1,76.23,53,0,5.75,IN,1634960849
Kalush,49.0119,24.3731,47.64,55,78,11.43,UA,1634960850
Libenge,3.65,18.6333,69.48,96,67,0.98,CD,1634960851
Kupang,-10.1667,123.5833,91.98,55,40,9.22,ID,1634960851
Mirabela,-16.2628,-44.1644,64.65,89,73,2.1,BR,1634960851
Kyzyl-Suu,42.3414,78.0056,33.57,72,96,1.1,KG,1634960851
Kushiro,42.975,144.3747,45.55,87,75,2.3,JP,1634960623
Prado,-17.3411,-39.2208,72.21,92,95,6.26,BR,1634960852
Kabalo,-6.05,26.9167,67.86,95,95,1.21,CD,1634960852
Nouadhibou,20.931,-17.0347,69.57,80,42,17.76,MR,1634960852
Woodward,36.4337,-99.3904,70.83,79,1,10.36,US,1634960853
Logan,41.7355,-111.8344,60.26,50,1,5.01,US,1634960758
Asău,46.4333,26.4,54.75,78,100,3.8,RO,1634960622
Bartlesville,36.7473,-95.9808,67.71,68,75,0.0,US,1634960854
Tymovskoye,50.8456,142.655,42.17,67,85,7.25,RU,1634960854
Beringovskiy,63.05,179.3167,15.62,80,100,12.77,RU,1634960854
Nazilli,37.9163,28.3223,55.8,75,0,0.56,TR,1634960855
Morón,-34.6534,-58.6198,60.96,92,100,4.0,AR,1634960745
Panzhihua,26.5851,101.7128,64.62,68,95,1.32,CN,1634960856
Khovd,48.0056,91.6419,44.04,30,100,1.19,MN,1634960838
Svetlaya,46.5389,138.3297,49.96,43,3,3.18,RU,1634960856
Mnogovershinnyy,53.9353,139.9242,37.78,84,79,11.27,RU,1634960857
Labuhan,-6.8844,112.2051,89.8,54,66,6.85,ID,1634960857
Netanya,32.3329,34.8599,64.94,62,0,7.27,IL,1634960858
Zachary,30.6485,-91.1565,73.67,83,90,5.75,US,1634960858
Tegul'det,57.3064,88.1667,38.62,57,97,14.67,RU,1634960858
Roald,62.5833,6.1333,42.94,65,20,3.44,NO,1634960859
Bambanglipuro,-7.95,110.2833,71.6,62,100,7.94,ID,1634960859
Khani,41.9563,42.9566,35.17,56,0,5.44,GE,1634960859
Haimen,23.1935,116.6142,67.89,68,73,11.81,CN,1634960860
Belgrade,44.804,20.4651,53.65,100,75,10.36,RS,1634960700
Amapá,1.0,-52.0,70.99,99,98,2.35,BR,1634960860
Tamandaré,-8.7597,-35.1047,76.89,86,20,5.61,BR,1634960861
